[
  {
    "name": "Portsea",
    "lat": -38.33784826666667,
    "lng": 144.70550115555554,
    "status": "Reliable",
    "lastTested": "4 days ago",
    "tipTitle": "Flush the Fountain",
    "tipDetail": "10–30 seconds before filling your bottle",
    "distance": "0.5 mi",
    "time": "8 min"
  },
  {
    "name": "Sorrento",
    "lat": -38.34730611666667,
    "lng": 144.72595763333334,
    "status": "Reliable",
    "lastTested": "4 days ago",
    "tipTitle": "Flush the Fountain",
    "tipDetail": "10–30 seconds before filling your bottle",
    "distance": "0.5 mi",
    "time": "8 min"
  },
  {
    "name": "Blairgowrie",
    "lat": -38.362780630555555,
    "lng": 144.7821210666667,
    "status": "Reliable",
    "lastTested": "4 days ago",
    "tipTitle": "Flush the Fountain",
    "tipDetail": "10–30 seconds before filling your bottle",
    "distance": "0.5 mi",
    "time": "8 min"
  },
  {
    "name": "Mordialloc",
    "lat": -38.00838380555555,
    "lng": 145.0808268222222,
    "status": "Reliable",
    "lastTested": "4 days ago",
    "tipTitle": "Flush the Fountain",
    "tipDetail": "10–30 seconds before filling your bottle",
    "distance": "0.5 mi",
    "time": "8 min"
  },
  {
    "name": "Rye",
    "lat": -38.37173231944445,
    "lng": 144.83185570833334,
    "status": "Reliable",
    "lastTested": "4 days ago",
    "tipTitle": "Flush the Fountain",
    "tipDetail": "10–30 seconds before filling your bottle",
    "distance": "0.5 mi",
    "time": "8 min"
  },
  {
    "name": "Rosebud Pier",
    "lat": -38.356975,
    "lng": 144.9079638888889,
    "status": "Reliable",
    "lastTested": "4 days ago",
    "tipTitle": "Flush the Fountain",
    "tipDetail": "10–30 seconds before filling your bottle",
    "distance": "0.5 mi",
    "time": "8 min"
  },
  {
    "name": "McCrae Lighthouse",
    "lat": -38.34414513888889,
    "lng": 144.9578924638889,
    "status": "Reliable",
    "lastTested": "4 days ago",
    "tipTitle": "Flush the Fountain",
    "tipDetail": "10–30 seconds before filling your bottle",
    "distance": "0.5 mi",
    "time": "8 min"
  },
  {
    "name": "Dromana Pier",
    "lat": -38.33796108055556,
    "lng": 144.96479741666667,
    "status": "Reliable",
    "lastTested": "4 days ago",
    "tipTitle": "Flush the Fountain",
    "tipDetail": "10–30 seconds before filling your bottle",
    "distance": "0.5 mi",
    "time": "8 min"
  },
  {
    "name": "Safety Beach",
    "lat": -38.31554470555555,
    "lng": 144.97423885555555,
    "status": "Reliable",
    "lastTested": "4 days ago",
    "tipTitle": "Flush the Fountain",
    "tipDetail": "10–30 seconds before filling your bottle",
    "distance": "0.5 mi",
    "time": "8 min"
  },
  {
    "name": "Mt Martha Pillars",
    "lat": -38.285768625,
    "lng": 144.99265881944443,
    "status": "Reliable",
    "lastTested": "4 days ago",
    "tipTitle": "Flush the Fountain",
    "tipDetail": "10–30 seconds before filling your bottle",
    "distance": "0.5 mi",
    "time": "8 min"
  },
  {
    "name": "Hawker Beach (Mount Martha)",
    "lat": -38.26444103055555,
    "lng": 145.01683461111112,
    "status": "Reliable",
    "lastTested": "4 days ago",
    "tipTitle": "Flush the Fountain",
    "tipDetail": "10–30 seconds before filling your bottle",
    "distance": "0.5 mi",
    "time": "8 min"
  },
  {
    "name": "Canadian Bay",
    "lat": -38.20582223333333,
    "lng": 145.0658335361111,
    "status": "Reliable",
    "lastTested": "4 days ago",
    "tipTitle": "Flush the Fountain",
    "tipDetail": "10–30 seconds before filling your bottle",
    "distance": "0.5 mi",
    "time": "8 min"
  },
  {
    "name": "Frankston",
    "lat": -38.144896958333334,
    "lng": 145.1188937222222,
    "status": "Reliable",
    "lastTested": "4 days ago",
    "tipTitle": "Flush the Fountain",
    "tipDetail": "10–30 seconds before filling your bottle",
    "distance": "0.5 mi",
    "time": "8 min"
  },
  {
    "name": "Seaford beach",
    "lat": -38.11069515555555,
    "lng": 145.1367638888889,
    "status": "Reliable",
    "lastTested": "4 days ago",
    "tipTitle": "Flush the Fountain",
    "tipDetail": "10–30 seconds before filling your bottle",
    "distance": "0.5 mi",
    "time": "8 min"
  },
  {
    "name": "Chelsea",
    "lat": -38.05262334166667,
    "lng": 145.12629316666667,
    "status": "Reliable",
    "lastTested": "4 days ago",
    "tipTitle": "Flush the Fountain",
    "tipDetail": "10–30 seconds before filling your bottle",
    "distance": "0.5 mi",
    "time": "8 min"
  },
  {
    "name": "Bonbeach Beach",
    "lat": -38.06790469166667,
    "lng": 145.13128319444443,
    "status": "Reliable",
    "lastTested": "4 days ago",
    "tipTitle": "Flush the Fountain",
    "tipDetail": "10–30 seconds before filling your bottle",
    "distance": "0.5 mi",
    "time": "8 min"
  },
  {
    "name": "Carrum Beach",
    "lat": -38.074558619444444,
    "lng": 145.13496038611112,
    "status": "Reliable",
    "lastTested": "4 days ago",
    "tipTitle": "Flush the Fountain",
    "tipDetail": "10–30 seconds before filling your bottle",
    "distance": "0.5 mi",
    "time": "8 min"
  },
  {
    "name": "Aspendale Beach",
    "lat": -38.03173692777778,
    "lng": 145.10718851666667,
    "status": "Reliable",
    "lastTested": "4 days ago",
    "tipTitle": "Flush the Fountain",
    "tipDetail": "10–30 seconds before filling your bottle",
    "distance": "0.5 mi",
    "time": "8 min"
  },
  {
    "name": "Parkdale Beach",
    "lat": -37.99952206666667,
    "lng": 145.07221055555555,
    "status": "Reliable",
    "lastTested": "4 days ago",
    "tipTitle": "Flush the Fountain",
    "tipDetail": "10–30 seconds before filling your bottle",
    "distance": "0.5 mi",
    "time": "8 min"
  },
  {
    "name": "Mordialloc Pier",
    "lat": -38.005080166666666,
    "lng": 145.08652919444445,
    "status": "Reliable",
    "lastTested": "4 days ago",
    "tipTitle": "Flush the Fountain",
    "tipDetail": "10–30 seconds before filling your bottle",
    "distance": "0.5 mi",
    "time": "8 min"
  },
  {
    "name": "Edithvale Beach",
    "lat": -38.040720994444445,
    "lng": 145.1193864277778,
    "status": "Reliable",
    "lastTested": "4 days ago",
    "tipTitle": "Flush the Fountain",
    "tipDetail": "10–30 seconds before filling your bottle",
    "distance": "0.5 mi",
    "time": "8 min"
  },
  {
    "name": "St Kilda Beach",
    "lat": -37.87197136666667,
    "lng": 144.8272824888889,
    "status": "Reliable",
    "lastTested": "4 days ago",
    "tipTitle": "Flush the Fountain",
    "tipDetail": "10–30 seconds before filling your bottle",
    "distance": "0.5 mi",
    "time": "8 min"
  }
]
